City_ID,City,Lat,Lng,Max Temp,Humidity,Cloudiness,Wind Speed,Country,Date
0,bilibino,68.0546,166.4372,3.22,95,100,0.97,RU,1694835810
1,fuente del maestre,38.5266,-6.4478,16.86,80,65,2.57,ES,1694836376
2,klyuchi,52.2667,79.1667,16.08,64,89,2.38,RU,1694835835
3,puerto natales,-51.7236,-72.4875,-0.3,90,11,2.43,CL,1694835818
4,waitangi,-43.9535,-176.5597,10.46,76,48,4.02,NZ,1694835816
5,port elizabeth,-33.918,25.5701,11.16,58,0,5.14,ZA,1694835808
6,rio grande,-32.035,-52.0986,11.64,80,88,6.56,BR,1694835819
7,olonkinbyen,70.9221,-8.7187,2.8,63,24,5.23,SJ,1694835822
8,ushuaia,-54.8,-68.3,1.81,75,75,3.6,AR,1694835811
9,imbituba,-28.24,-48.6703,13.94,91,7,5.25,BR,1694836378
10,minas de marcona,-15.2119,-75.1103,13.18,79,100,3.37,PE,1694836378
11,port-aux-francais,-49.35,70.2167,5.66,91,100,15.99,TF,1694835814
12,lompoc,34.6391,-120.4579,18.07,92,100,3.09,US,1694835834
13,hermitage,41.2334,-80.4487,13.96,91,0,3.6,US,1694836103
14,margaret river,-33.95,115.0667,16.02,69,100,2.81,AU,1694835844
15,mogocha,53.7333,119.7667,16.1,40,99,1.81,RU,1694835837
16,invercargill,-46.4,168.35,17.23,57,61,6.71,NZ,1694835822
17,hithadhoo,-0.6,73.0833,28.04,78,85,7.62,MV,1694835864
18,argostolion,38.1811,20.489,23.75,37,9,2.45,GR,1694836380
19,nyurba,63.2842,118.3319,7.04,49,71,4.98,RU,1694835899
20,geraldton,-28.7667,114.6,23.23,49,40,4.12,AU,1694835865
21,manado,1.487,124.8455,32.43,58,40,2.06,ID,1694836380
22,toamasina,-18.1667,49.3833,20.0,94,75,4.12,MG,1694836381
23,adamstown,-25.066,-130.1015,17.83,91,100,13.6,PN,1694835806
24,puerto cabezas,14.0351,-83.3888,26.77,83,100,2.93,NI,1694836381
25,kimbe,-5.5502,150.1429,29.31,52,40,6.24,PG,1694836381
26,aasiaat,68.7098,-52.8699,1.74,83,100,5.14,GL,1694835820
27,tera,14.0078,0.7531,28.72,60,98,4.05,NE,1694836382
28,blackmans bay,-43.0167,147.3167,12.07,91,87,1.35,AU,1694835808
29,northam,51.0333,-4.2167,15.9,91,58,2.43,GB,1694836382
30,susuman,62.7833,148.1667,8.94,45,35,2.08,RU,1694835935
31,zhangye,38.9342,100.4517,22.22,21,0,6.31,CN,1694836383
32,ntungamo,-0.8833,29.65,18.24,89,100,1.31,UG,1694835899
33,petropavlovsk-kamchatsky,53.0452,158.6483,9.33,93,75,3.0,RU,1694835850
34,bredasdorp,-34.5322,20.0403,10.19,61,59,9.47,ZA,1694835810
35,remire-montjoly,4.9167,-52.2667,26.02,94,40,1.03,GF,1694835875
36,orapa,-21.2833,25.3667,19.29,28,0,2.01,BW,1694836384
37,wailua homesteads,22.0669,-159.378,28.24,75,20,7.2,US,1694835825
38,yuzhno-kurilsk,44.0306,145.8556,19.62,84,100,3.64,RU,1694835817
39,grytviken,-54.2811,-36.5092,0.25,97,100,3.24,GS,1694835810
40,konarka,19.9,86.1167,29.22,74,100,3.78,IN,1694836385
41,ust-nera,64.5667,143.2,6.3,56,100,1.34,RU,1694835831
42,freetown,8.484,-13.2299,25.09,87,100,2.77,SL,1694835878
43,barguzin,53.6167,109.6167,17.29,50,98,0.57,RU,1694835893
44,sparti,37.0733,22.4297,21.08,50,79,0.92,GR,1694836386
45,soro,21.2881,86.6858,29.92,74,98,2.6,IN,1694836386
46,tolanaro,-25.0319,46.9987,21.04,88,20,8.23,MG,1694835876
47,biloela,-24.4167,150.5,28.66,22,0,5.6,AU,1694836387
48,avarua,-21.2078,-159.775,25.03,78,40,7.2,CK,1694835809
49,southside,33.9245,-86.0225,21.95,93,100,2.06,US,1694836387
50,edinburgh of the seven seas,-37.0676,-12.3116,14.65,91,87,12.13,SH,1694835806
51,salina cruz,16.1667,-95.2,26.95,84,68,2.48,MX,1694836387
52,victoria,22.2855,114.1577,30.24,79,100,2.24,HK,1694836374
53,lorengau,-2.0226,147.2712,28.1,72,99,8.55,PG,1694835868
54,carauari,-4.8828,-66.8958,26.46,48,60,1.24,BR,1694836388
55,yanchep,-31.55,115.6833,21.45,60,91,2.66,AU,1694836388
56,tiksi,71.6872,128.8694,1.63,72,100,7.76,RU,1694835824
57,lebu,-37.6167,-73.65,11.29,95,100,5.71,CL,1694835843
58,corleone,37.8134,13.3017,21.94,58,53,1.11,IT,1694836389
59,kerikeri,-35.2268,173.9474,15.83,58,2,2.53,NZ,1694836389
60,grand falls-windsor,48.9332,-55.6649,15.84,89,100,0.26,CA,1694836390
61,moose jaw,50.4001,-105.5344,11.14,66,10,2.57,CA,1694836390
62,soe,-9.8607,124.284,27.53,36,4,5.62,ID,1694835843
63,nuku'alofa,-21.1333,-175.2,24.19,83,75,6.69,TO,1694835871
64,port mathurin,-19.6833,63.4167,22.88,73,60,9.1,MU,1694835832
65,papatowai,-46.5619,169.4708,14.88,56,96,8.99,NZ,1694835827
66,caleta de carquin,-11.0925,-77.6267,18.67,86,95,3.69,PE,1694835855
67,luena,-11.7833,19.9167,19.1,37,0,3.09,AO,1694836391
68,dudinka,69.4058,86.1778,4.79,95,100,4.99,RU,1694836391
69,mugia,43.1041,-9.2179,18.42,84,100,7.49,ES,1694835950
70,st. john's,47.5649,-52.7093,20.66,98,100,2.06,CA,1694835600
71,kapuskasing,49.4169,-82.4331,16.05,94,100,4.63,CA,1694835911
72,hasaki,35.7333,140.8333,32.94,77,40,1.7,JP,1694835872
73,punta arenas,-53.15,-70.9167,2.06,69,20,1.54,CL,1694835808
74,happy valley-goose bay,53.3168,-60.3315,8.17,87,20,1.03,CA,1694835924
75,hadibu,12.65,54.0333,26.93,78,49,8.23,YE,1694835916
76,constantia,44.1833,28.65,19.38,78,64,4.2,RO,1694836393
77,homer,59.6425,-151.5483,12.94,75,100,1.79,US,1694836393
78,chonchi,-42.6128,-73.8092,6.56,89,100,4.16,CL,1694835877
79,sawai madhopur,25.9833,76.3667,27.56,78,100,6.72,IN,1694836394
80,toledo,39.8333,-4.0,18.1,76,60,2.48,ES,1694836394
81,arraial do cabo,-22.9661,-42.0278,20.0,75,92,3.49,BR,1694835844
82,san patricio,28.017,-97.5169,25.94,69,10,4.62,US,1694836395
83,saipan,15.1355,145.701,31.39,74,0,5.66,MP,1694835807
84,iqaluit,63.7506,-68.5145,0.85,86,20,7.72,CA,1694835819
85,ancud,-41.8697,-73.8203,7.82,80,100,9.18,CL,1694835854
86,dzhalagash,45.0833,64.6667,19.1,33,0,2.49,KZ,1694836395
87,batumi,41.6416,41.6359,18.99,88,75,5.66,GE,1694836396
88,whitehorse,60.7161,-135.0538,10.57,43,75,3.6,CA,1694835615
89,puerto ayora,-0.7393,-90.3518,23.64,89,99,2.24,EC,1694835814
90,college,64.8569,-147.8028,12.99,62,75,2.06,US,1694835818
91,new norfolk,-42.7826,147.0587,12.72,96,97,1.52,AU,1694835839
92,canutama,-6.5339,-64.3831,27.01,50,81,0.83,BR,1694836397
93,west island,-12.1568,96.8225,27.99,69,40,5.14,CC,1694835828
94,udachny,66.4167,112.4,1.36,86,67,8.8,RU,1694835834
95,ugoofaaru,5.6667,73.0,28.0,74,17,3.62,MV,1694835947
96,kodiak,57.79,-152.4072,10.73,100,100,0.0,US,1694835810
97,alice springs,-23.7,133.8833,30.75,10,0,3.09,AU,1694835889
98,port alfred,-33.5906,26.891,11.21,65,86,2.68,ZA,1694835831
99,laguna,38.421,-121.4238,26.99,60,0,3.6,US,1694835936
100,zaragoza,41.6561,-0.8773,19.25,83,40,2.57,ES,1694836360
101,ciudad lazaro cardenas,17.9583,-102.2,27.75,84,100,1.41,MX,1694836399
102,ndende,-2.4008,11.3581,21.98,90,46,1.14,GA,1694836399
103,newman,37.3138,-121.0208,27.38,46,4,1.34,US,1694835828
104,albany,42.6001,-73.9662,15.3,74,100,0.45,US,1694835813
105,iskateley,67.6803,53.1512,4.63,82,100,2.03,RU,1694835829
106,flying fish cove,-10.4217,105.6791,25.82,78,100,7.2,CX,1694835826
107,pisco,-13.7,-76.2167,18.34,77,20,1.03,PE,1694835646
108,hamilton,39.1834,-84.5333,17.71,74,0,1.54,US,1694835803
109,ribeira grande,38.5167,-28.7,20.99,67,0,7.6,PT,1694835814
110,mirny,62.5353,113.9611,6.8,48,35,4.92,RU,1694835948
111,greymouth,-42.4667,171.2,10.93,82,100,6.14,NZ,1694835611
112,tazovsky,67.4667,78.7,11.28,80,71,5.88,RU,1694835830
113,bonthe,7.5264,-12.505,24.45,92,100,3.23,SL,1694836402
114,hawaiian paradise park,19.5933,-154.9731,27.8,84,20,3.6,US,1694835833
115,kurayoshi,35.4333,133.8167,29.95,72,41,2.26,JP,1694836402
116,badger,64.8,-147.5333,12.95,66,75,2.06,US,1694835839
117,yellowknife,62.456,-114.3525,12.45,81,40,3.09,CA,1694835795
118,tefe,-3.3542,-64.7114,25.29,43,78,0.72,BR,1694835856
119,san pedro,14.35,121.0167,32.57,66,40,3.09,PH,1694836403
120,sabang,5.8933,95.3214,28.11,73,96,2.83,ID,1694836403
121,waingapu,-9.6567,120.2641,29.76,55,86,7.16,ID,1694836404
122,jamestown,42.097,-79.2353,12.8,89,0,3.09,US,1694835700
123,qaqortoq,60.7167,-46.0333,4.47,98,100,4.22,GL,1694835826
124,yemetsk,63.4721,41.7941,5.97,92,99,2.49,RU,1694836404
125,isafjordur,66.0755,-23.124,6.17,83,42,2.29,IS,1694835815
126,nova sintra,14.8667,-24.7167,23.56,77,28,6.06,CV,1694836405
127,vila velha,-20.3297,-40.2925,18.97,93,75,6.17,BR,1694835920
128,terbanggi besar,-4.8667,105.2333,31.21,55,84,3.92,ID,1694836405
129,nieuw amsterdam,5.8833,-55.0833,27.23,86,17,4.04,SR,1694836406
130,selfoss,63.9331,-20.9971,7.8,96,100,1.78,IS,1694835828
131,georgetown,5.4112,100.3354,31.96,70,20,3.09,MY,1694835815
132,as sulayyil,20.4607,45.5779,32.14,21,11,4.17,SA,1694835891
133,longyearbyen,78.2186,15.6401,0.91,80,75,3.6,SJ,1694835823
134,port hueneme,34.1478,-119.1951,21.08,87,100,3.09,US,1694836407
135,kuta,-8.7233,115.1723,27.97,78,40,7.2,ID,1694836407
136,mweka,-4.85,21.5667,21.42,77,70,0.54,CD,1694836407
137,ta`u,-14.2336,-169.5144,26.75,81,99,9.37,AS,1694835887
138,ilulissat,69.2167,-51.1,8.01,49,100,7.2,GL,1694835837
139,tual,-5.6667,132.75,25.42,79,33,8.01,ID,1694835895
140,kingston,17.997,-76.7936,29.53,90,20,3.09,JM,1694835834
141,rio de janeiro,-22.9028,-43.2075,19.0,82,100,3.09,BR,1694835602
142,pak phanang,8.3511,100.202,33.01,54,100,0.8,TH,1694836408
143,vilhena,-12.7406,-60.1458,23.26,59,25,0.98,BR,1694836408
144,dul'durga,50.6761,113.5931,12.9,38,99,2.96,RU,1694836409
145,zapadnaya dvina,56.259,32.0745,6.23,88,18,1.11,RU,1694836409
146,smithers,54.7804,-127.1743,12.18,58,40,2.06,CA,1694835661
147,tura,25.5198,90.2201,30.04,67,2,0.87,IN,1694835940
148,ponoka,52.6768,-113.5815,17.99,45,5,4.02,CA,1694836410
149,port antonio,18.18,-76.4612,29.95,81,85,2.35,JM,1694836410
150,pakuranga,-36.8833,174.9167,17.61,65,57,4.63,NZ,1694836410
151,mangrol,21.1167,70.1167,28.37,75,98,4.97,IN,1694836410
152,cabo san lucas,22.8909,-109.9124,29.61,74,0,2.98,MX,1694836218
153,newberry,34.2746,-81.6187,19.92,88,0,1.33,US,1694836411
154,egilsstadir,65.2653,-14.3948,3.95,87,75,1.54,IS,1694835907
155,twon-brass,4.3151,6.2418,25.49,87,100,4.54,NG,1694836411
156,kailua-kona,19.6406,-155.9956,28.98,86,40,4.12,US,1694835748
157,ola,59.5833,151.2833,15.08,66,15,2.56,RU,1694835890
158,pando,-34.7167,-55.95,16.22,63,0,8.23,UY,1694836412
159,coquimbo,-29.9533,-71.3436,12.85,94,0,0.51,CL,1694835924
160,kapa'a,22.0752,-159.319,28.99,74,20,7.2,US,1694835873
161,letlhakane,-21.4167,25.5833,18.84,29,0,0.65,BW,1694836413
162,phan rang-thap cham,11.5667,108.9833,33.52,52,47,4.03,VN,1694836413
163,awjilah,29.1081,21.2869,22.16,40,0,2.73,LY,1694835934
164,thompson,55.7435,-97.8558,8.09,87,100,4.63,CA,1694835823
165,kavaratti,10.5669,72.642,27.59,77,95,3.26,IN,1694835844
166,sitka,57.0531,-135.33,12.94,71,100,3.09,US,1694835595
167,altai,46.3722,96.2583,6.41,60,97,2.3,MN,1694835932
168,khandyga,62.6667,135.6,3.12,93,100,5.5,RU,1694836414
169,penzance,50.1186,-5.5371,16.38,90,50,6.34,GB,1694836414
170,afaahiti,-17.75,-149.2833,23.93,82,86,8.35,PF,1694835920
171,ulladulla,-35.35,150.4667,30.43,24,0,5.53,AU,1694836415
172,khash,28.2211,61.2158,25.57,16,50,1.8,IR,1694836415
173,linevo,54.4589,83.3764,14.66,70,97,1.95,RU,1694836292
174,mahe,11.7,75.5333,26.75,80,99,1.61,IN,1694836415
175,santa catalina,9.3337,122.8637,30.99,69,49,2.29,PH,1694836416
176,brookings,44.3114,-96.7984,16.77,66,0,0.0,US,1694836416
177,palikir - national government center,6.9248,158.1611,29.47,84,100,3.09,FM,1694835855
178,marang,5.2056,103.2059,30.54,72,48,2.63,MY,1694836190
179,adrar,20.5022,-10.0711,32.52,27,5,3.46,MR,1694836416
180,novoagansk,61.9449,76.6625,13.96,64,42,2.65,RU,1694836417
181,tweed heads,-28.1817,153.547,27.34,58,0,5.14,AU,1694836417
182,esmeralda,21.8525,-78.1169,25.11,84,56,2.23,CU,1694836417
183,mejit,10.2753,170.8646,28.58,78,15,6.51,MH,1694836417
184,magadan,59.5667,150.8,14.74,66,24,2.14,RU,1694836418
185,dabwali,29.95,74.7333,33.66,53,28,3.6,IN,1694836418
186,la'ie,21.6477,-157.9253,29.98,75,28,1.79,US,1694835614
187,utrik,11.2278,169.8474,28.78,78,85,6.6,MH,1694835852
188,daru,-9.0763,143.2092,25.57,64,63,6.43,PG,1694836419
189,sensuntepeque,13.8667,-88.6333,19.3,95,80,0.71,SV,1694836183
190,meiganga,6.5167,14.3,18.08,99,100,1.57,CM,1694836419
191,gafour,36.3205,9.3242,24.21,48,70,1.39,TN,1694836419
192,roccella ionica,38.322,16.4009,23.74,63,7,2.64,IT,1694836420
193,severo-yeniseyskiy,60.3725,93.0408,14.65,58,25,1.06,RU,1694836420
194,walvis bay,-22.9575,14.5053,11.16,93,0,2.57,NA,1694836420
195,riberalta,-10.9833,-66.1,25.45,63,42,0.58,BO,1694836420
196,kyzyl-mazhalyk,51.1333,90.6,9.96,77,100,0.9,RU,1694836421
197,denov,38.2667,67.9,26.88,22,0,2.68,UZ,1694836421
198,anadyr,64.75,177.4833,7.28,75,75,2.0,RU,1694835821
199,lihue,21.9789,-159.3672,28.58,74,20,7.2,US,1694835847
200,belyy yar,53.6039,91.3903,14.94,77,0,2.0,RU,1694836422
201,la passe,45.5549,-0.8967,19.13,88,100,4.53,FR,1694835897
202,bar-sur-aube,48.25,4.5833,15.35,71,100,3.43,FR,1694836422
203,taunsa,30.7048,70.6505,36.37,31,23,2.22,PK,1694836423
204,bu'aale,1.0833,42.5833,23.18,78,12,2.35,SO,1694836423
205,madalena,41.2162,-8.3345,17.32,94,93,1.81,PT,1694835911
206,dassa-zoume,7.75,2.1833,23.27,97,100,0.73,BJ,1694836423
207,ryotsu-minato,38.0833,138.4333,26.91,81,71,0.46,JP,1694836423
208,bac lieu,9.285,105.7244,29.72,69,81,5.06,VN,1694835926
209,labrador city,52.9463,-66.9114,4.95,93,0,2.06,CA,1694835834
210,amos,48.5669,-78.1162,9.21,87,52,2.57,CA,1694836295
211,kifri,34.6959,44.9661,27.99,12,0,3.08,IQ,1694836424
212,hassi messaoud,31.6804,6.0729,25.92,18,0,2.06,DZ,1694835922
213,humaita,-7.5061,-63.0208,29.96,35,100,0.93,BR,1694836425
214,mogadishu,2.0371,45.3438,25.77,74,24,6.16,SO,1694836172
215,port augusta,-32.5,137.7667,30.22,17,0,2.22,AU,1694835829
216,garachico,28.7781,-17.7646,21.06,73,0,1.54,ES,1694836426
217,berezovyy,51.6667,135.7,20.08,24,3,3.74,RU,1694835927
218,kalmunai,7.4167,81.8167,30.39,59,88,2.63,LK,1694836426
219,vilyuchinsk,52.9306,158.4028,10.15,85,99,2.1,RU,1694835831
220,copala,16.65,-98.9833,25.88,87,100,2.01,MX,1694836426
221,oranjemund,-28.55,16.4333,12.14,85,92,4.04,NA,1694836427
222,verkhov'ye,52.8119,37.2425,11.35,70,79,2.96,RU,1694836427
223,kiruna,67.8557,20.2251,1.51,100,100,3.09,SE,1694836427
224,jayapura,-2.5333,140.7,30.66,81,81,1.98,ID,1694836428
225,hawalli,29.2833,47.9972,34.76,35,0,4.47,KW,1694836428
226,praia da vitoria,38.7333,-27.0667,20.14,56,40,7.6,PT,1694835882
227,elizabethtown,37.694,-85.8591,14.43,93,0,0.0,US,1694836428
228,bamboo flat,11.7,92.7167,29.05,79,75,3.6,IN,1694836428
229,copiapo,-27.3667,-70.3333,11.83,80,2,0.97,CL,1694836429
230,ivanteyevka,55.9711,37.9208,12.81,87,59,0.45,RU,1694836429
231,contai,21.7786,87.7536,30.11,75,60,3.73,IN,1694836429
232,carlsbad,33.1581,-117.3506,21.49,85,100,2.06,US,1694836164
233,nakhon nayok,14.1667,101.1,25.26,94,100,1.73,TH,1694836429
234,cromer,52.9312,1.2989,16.19,81,39,3.91,GB,1694836430
235,kudahuvadhoo,2.6708,72.8944,28.26,76,27,5.27,MV,1694835859
236,chardara,41.2547,67.9692,21.11,33,13,2.29,KZ,1694836430
237,fale old settlement,-9.3852,-171.2468,28.55,75,10,5.54,TK,1694835877
238,pangai,-19.8,-174.35,26.06,73,75,6.17,TO,1694836431
239,broome,42.2506,-75.833,11.76,93,17,1.65,US,1694836431
240,conception bay south,47.4999,-52.9981,20.53,97,100,0.89,CA,1694835862
241,gaigeturi,33.4644,126.3183,26.03,94,100,2.06,KR,1694836431
242,ibshaway,29.358,30.6814,22.29,75,0,3.93,EG,1694836431
243,kangding,30.0513,101.9603,22.31,60,33,2.24,CN,1694836432
244,tobelo,1.7284,128.0095,28.4,75,70,1.18,ID,1694835838
245,sao paulo de olivenca,-3.3783,-68.8725,24.87,85,96,1.04,BR,1694836432
246,fort mcmurray,56.7268,-111.381,15.77,51,0,4.12,CA,1694836433
247,talnakh,69.4865,88.3972,4.56,99,100,3.87,RU,1694835846
248,santa ana,33.7456,-117.8678,22.11,82,75,2.57,US,1694836156
249,vilyuysk,63.7553,121.6247,5.92,52,87,6.73,RU,1694836434
250,nabire,-3.3667,135.4833,28.12,77,100,1.04,ID,1694836434
251,lethem,3.3803,-59.7968,28.08,49,14,3.15,GY,1694836434
252,hermanus,-34.4187,19.2345,10.45,69,85,11.71,ZA,1694836434
253,whakatane,-37.9585,176.9854,18.82,76,11,1.34,NZ,1694836434
254,aral,40.5156,81.2636,23.65,28,1,10.23,CN,1694836435
255,lagoa,39.05,-27.9833,20.28,60,28,8.57,PT,1694836435
256,danjiangkou,32.5428,111.5086,29.27,55,7,2.36,CN,1694836435
257,san antonio de pale,-1.4014,5.6325,24.3,80,100,5.11,GQ,1694835895
258,trairi,-3.2778,-39.2689,25.9,81,74,6.16,BR,1694836160
259,palmer,42.1584,-72.3287,16.46,67,75,5.66,US,1694836436
260,bissau,11.8636,-15.5977,26.06,100,40,0.0,GW,1694836436
261,roma,43.2128,-75.4557,12.07,91,53,1.13,US,1694836164
262,urengoy,65.9667,78.3667,13.39,71,86,4.02,RU,1694836436
263,kavieng,-2.5744,150.7967,28.15,71,69,5.91,PG,1694836437
264,papao,-17.75,-149.55,24.82,81,60,9.1,PF,1694836437
265,mahina,-17.5065,-149.489,24.87,78,75,3.6,PF,1694835920
266,arkhangel'sk,64.5401,40.5433,5.4,87,82,0.59,RU,1694835869
267,levuka,50.1834,-105.4011,10.84,51,7,2.07,CA,1694836438
268,shimoda,34.6667,138.95,30.2,78,65,4.4,JP,1694836438
269,usinsk,65.9939,57.5281,7.03,88,100,6.14,RU,1694836438
270,port-gentil,-0.7193,8.7815,24.72,83,100,5.66,GA,1694836438
271,suntar,62.1444,117.6319,9.35,44,13,4.25,RU,1694836439
272,singaraja,-8.112,115.0882,28.87,63,84,2.02,ID,1694836439
273,amungan,15.3652,119.9582,29.21,74,42,2.95,PH,1694836439
274,enewetak,11.3474,162.3373,29.24,75,11,6.66,MH,1694836440
275,robore,-18.3333,-59.75,22.18,63,0,1.38,BO,1694836440
276,touros,-5.1989,-35.4608,24.81,81,96,5.37,BR,1694835757
277,midvagur,62.0511,-7.1939,2.46,87,20,0.51,FO,1694835863
278,brisas de zicatela,15.8369,-97.0419,26.29,61,0,2.06,MX,1694836440
279,saudarkrokur,65.7461,-19.6394,5.8,91,73,4.33,IS,1694835891
280,vorgashor,67.5833,63.95,6.1,75,100,4.72,RU,1694836441
281,bethanie,-26.4833,17.15,8.65,61,1,2.73,NA,1694836441
282,great dunmow,51.8723,0.3626,15.05,97,37,1.54,GB,1694836442
283,uturoa,-16.7333,-151.4333,25.48,77,98,7.86,PF,1694835858
284,phongsali,21.6833,102.1058,25.18,57,42,1.49,LA,1694836442
285,myrina,39.8797,25.0742,20.58,83,0,2.57,GR,1694836442
286,isangel,-19.55,169.2667,26.06,73,40,0.0,VU,1694836367
287,cururupu,-1.8283,-44.8683,25.52,81,13,2.82,BR,1694836443
288,kaiapoi,-43.3783,172.6401,17.19,41,100,9.77,NZ,1694836230
289,fortuna,40.5982,-124.1573,15.52,95,100,0.45,US,1694836443
290,polyarnyy,69.1989,33.4478,4.22,87,56,5.24,RU,1694836444
291,codrington,-38.2667,141.9667,20.65,59,0,7.87,AU,1694836444
292,quinte west,44.1834,-77.5662,13.15,83,0,0.0,CA,1694836444
293,east london,-33.0153,27.9116,14.26,55,95,9.26,ZA,1694835909
294,camayenne,9.535,-13.6878,26.67,81,99,2.43,GN,1694836445
295,sao mateus do sul,-25.8742,-50.3828,9.01,91,1,0.93,BR,1694836445
296,mount isa,-20.7333,139.5,30.87,18,0,4.63,AU,1694835933
297,queenstown,-31.8976,26.8753,8.68,61,13,5.88,ZA,1694836446
298,garissa,-0.4536,39.6401,23.12,76,50,5.69,KE,1694836446
299,abu al matamir,30.9102,30.1744,22.27,81,0,0.9,EG,1694836446
300,gaalkacyo,6.7697,47.4308,24.85,69,59,7.95,SO,1694836446
301,galle,6.0367,80.217,28.28,75,84,2.54,LK,1694836447
302,sault ste. marie,46.5168,-84.3333,15.16,87,100,2.57,CA,1694836219
303,gdov,58.7406,27.8122,11.34,81,60,3.66,RU,1694836447
304,argenton-sur-creuse,46.59,1.5198,17.19,71,100,1.85,FR,1694836448
305,toliara,-23.35,43.6667,23.0,59,0,2.6,MG,1694835948
306,amparafaravola,-17.5833,48.2167,14.85,84,46,1.94,MG,1694836448
307,mont-dore,-22.2833,166.5833,23.99,84,97,6.79,NC,1694836448
308,puerto el triunfo,13.2833,-88.55,26.26,86,96,1.44,SV,1694836203
309,hutchinson,38.0608,-97.9298,17.97,96,100,2.06,US,1694836184
310,nkhotakota,-12.9274,34.2961,22.13,62,6,0.96,MW,1694836449
311,taoudenni,22.6783,-3.9836,35.9,19,35,3.76,ML,1694836450
312,siwa oasis,29.2041,25.5195,22.64,51,0,2.2,EG,1694836450
313,addiet canna,11.2667,37.4833,13.92,89,73,1.06,ET,1694836450
314,itaituba,-4.2761,-55.9836,29.13,38,92,0.61,BR,1694836450
315,stanley,54.868,-1.6985,10.99,92,100,6.17,GB,1694836451
316,minggang,32.4586,114.0486,29.63,46,0,2.04,CN,1694836451
317,pathein,16.7833,94.7333,30.25,70,76,4.52,MM,1694836451
318,namibe,-15.1961,12.1522,18.42,89,99,3.54,AO,1694835899
319,moranbah,-22.0016,148.0466,27.5,23,0,7.6,AU,1694836452
320,yelizovo,53.1873,158.3805,10.08,93,75,3.13,RU,1694836452
321,micheweni,-4.9667,39.8333,25.13,76,76,3.37,TZ,1694836452
322,sangmelima,2.9333,11.9833,20.19,98,100,1.6,CM,1694836452
323,rio brilhante,-21.8019,-54.5464,16.89,55,0,2.3,BR,1694836453
324,gadzhiyevo,69.2551,33.3362,3.63,88,48,5.15,RU,1694835921
325,lake havasu city,34.4839,-114.3224,35.12,14,0,4.63,US,1694836453
326,alofi,-19.0595,-169.9187,24.94,65,46,5.14,NU,1694836453
327,pearsall,28.8922,-99.095,27.99,74,78,0.48,US,1694836454
328,onega,63.9061,38.1404,6.95,82,68,0.6,RU,1694836454
329,fort st. john,56.2499,-120.8529,15.94,33,75,5.14,CA,1694836454
330,gunjur,13.2019,-16.7339,26.04,94,40,0.0,GM,1694836454
331,karratha,-20.7377,116.8463,33.89,19,0,3.39,AU,1694835896
332,port lincoln,-34.7333,135.8667,21.88,43,0,4.79,AU,1694835876
333,al hadd,26.2456,50.6542,35.03,49,0,8.23,BH,1694836455
334,hammerfest,70.6634,23.6821,3.25,81,60,0.0,NO,1694836455
335,margate,51.3813,1.3862,20.39,93,64,0.89,GB,1694836456
336,xichang,27.8964,102.2634,25.75,67,47,1.11,CN,1694835910
337,thunder bay,48.4001,-89.3168,12.99,100,75,1.54,CA,1694835608
338,carnarvon,-24.8667,113.6333,23.29,56,0,6.77,AU,1694836456
339,dali,25.7,100.1833,24.94,57,6,0.97,CN,1694836456
340,hlusk,52.903,28.6845,7.61,94,12,2.59,BY,1694836457
341,ormara,25.2088,64.6357,26.61,84,81,5.31,PK,1694836457
342,atafu village,-8.5421,-172.5159,28.79,73,24,5.53,TK,1694836457
343,san luis de la loma,17.2706,-100.8939,26.72,89,100,2.2,MX,1694836457
344,calama,-22.4667,-68.9333,10.27,18,0,5.14,CL,1694836448
345,bardai,11.65,7.2333,21.25,84,100,2.38,NG,1694836458
346,sinabang,2.4803,96.3801,27.62,81,92,3.87,ID,1694835906
347,wenchang,30.904,118.4887,27.92,70,47,2.03,CN,1694836458
348,yamada,39.4667,141.95,26.82,76,89,0.26,JP,1694836458
349,nar'yan-mar,67.6713,53.087,4.65,82,100,2.03,RU,1694835860
350,guadalupe,25.6833,-100.25,26.66,67,98,1.31,MX,1694836427
351,north platte,41.1239,-100.7654,16.88,84,0,1.34,US,1694836361
352,bambanglipuro,-7.95,110.2833,29.23,58,12,7.85,ID,1694836459
353,corumba,-19.0092,-57.6533,21.96,64,0,1.35,BR,1694836459
354,belomorsk,64.5232,34.7668,5.65,96,31,2.55,RU,1694836460
355,luderitz,-26.6481,15.1594,12.73,88,21,9.18,NA,1694835906
356,inhambane,-23.865,35.3833,20.99,88,20,5.81,MZ,1694836460
357,fort bragg,35.139,-79.006,16.75,86,0,0.0,US,1694836460
358,gilau,46.7324,23.3617,14.25,94,98,2.33,RO,1694836461
359,mili,6.0815,171.735,28.41,76,100,3.34,MH,1694836461
360,as sulaymaniyah,35.5611,45.4375,16.24,29,0,1.54,IQ,1694836461
361,siracusa,37.0881,15.2792,21.77,68,2,1.08,IT,1694836215
362,karabar,-35.3753,149.2308,25.03,39,0,9.77,AU,1694836462
363,uliastay,47.7417,96.8444,10.34,48,24,2.47,MN,1694836462
364,les avirons,-21.2418,55.3394,21.03,60,100,2.57,RE,1694836462
365,weno,7.4515,151.8468,31.97,74,75,2.06,FM,1694835870
366,north myrtle beach,33.816,-78.68,17.29,87,0,0.0,US,1694836463
367,mahanoro,-19.9,48.8,22.28,74,53,0.62,MG,1694836463
368,manthani,18.65,79.6667,26.56,84,98,3.1,IN,1694836463
369,vardenik,40.1393,45.4334,11.88,71,9,2.29,AM,1694836463
370,mitu,1.1983,-70.1733,22.93,88,100,0.51,CO,1694836289
371,tarboro,35.8968,-77.5358,15.61,100,100,0.0,US,1694836464
372,bouna,9.2667,-3.0,22.66,98,99,1.48,CI,1694836464
373,sisimiut,66.9395,-53.6735,2.73,71,97,2.74,GL,1694836464
374,amahai,-3.3333,128.9167,26.54,80,99,5.23,ID,1694835909
375,arteche,12.2645,125.4048,30.25,67,32,2.97,PH,1694836465
376,quartu sant'elena,39.2419,9.1839,26.13,72,20,4.63,IT,1694836465
377,santa rosa de viterbo,-21.4728,-47.3631,16.41,46,0,1.08,BR,1694836465
378,coron,11.9986,120.2043,28.71,78,80,1.6,PH,1694836466
379,biharamulo,-2.6319,31.3089,20.43,60,100,0.6,TZ,1694836466
380,piti village,13.4626,144.6933,32.49,71,40,5.66,GU,1694836466
381,bobo-dioulasso,11.1771,-4.2979,24.25,100,40,1.03,BF,1694836467
382,pervomayskoye,43.919,46.7102,18.94,62,3,1.66,RU,1694836467
383,callao,-12.0667,-77.15,19.29,72,20,3.6,PE,1694836467
384,puerto plata,19.7934,-70.6884,26.91,89,20,0.0,DO,1694836467
385,ranau,5.9538,116.6641,27.37,77,46,0.73,MY,1694836467
386,nakamura,32.9833,132.9333,29.66,72,74,2.1,JP,1694836468
387,kone,-21.0595,164.8658,22.78,75,75,3.98,NC,1694836468
388,el nido,11.1858,119.3956,28.6,74,42,0.26,PH,1694836468
389,road town,18.4167,-64.6167,29.12,74,100,4.55,VG,1694836469
390,port douglas,-16.4833,145.4667,24.06,59,9,7.7,AU,1694836469
391,san carlos del zulia,9.0,-71.9135,26.64,86,100,1.23,VE,1694836469
392,bikenibeu village,1.3673,173.1241,30.98,66,75,1.03,KI,1694836469
393,keflavik,64.0049,-22.5624,8.24,93,100,3.09,IS,1694836470
394,guanica,17.9716,-66.908,27.21,70,99,1.5,PR,1694836470
395,yaren,-0.5472,166.916,28.8,72,41,3.6,NR,1694836470
396,priekule,56.4468,21.5897,6.62,87,25,2.62,LV,1694836470
397,estevan,49.1334,-102.9842,10.12,81,0,2.57,CA,1694836454
398,velizh,55.6056,31.1967,6.05,86,17,1.41,RU,1694836471
399,ilomantsi,62.6716,30.9328,5.94,92,98,3.57,FI,1694836471
400,padangsidempuan,1.3667,99.2667,27.48,79,28,0.69,ID,1694836472
401,notodden,59.5594,9.2585,14.44,86,100,1.09,NO,1694836472
402,mar del plata,-38.0023,-57.5575,18.01,80,0,3.09,AR,1694836472
403,itaueira,-7.6033,-43.0256,28.17,29,0,3.24,BR,1694836472
404,lafollette,36.3829,-84.1199,21.89,100,0,0.0,US,1694836473
405,mchinji,-13.7984,32.8802,17.14,64,2,1.46,MW,1694836473
406,kayangel,8.0823,134.7173,27.95,76,100,3.87,PW,1694835949
407,aitape,-3.1374,142.3475,28.25,74,73,1.71,PG,1694836473
408,morehead city,34.7229,-76.726,21.1,83,0,3.09,US,1694836473
409,kotabumi,-4.8333,104.9,31.6,53,71,3.08,ID,1694836474
410,manali,13.1667,80.2667,31.05,75,100,5.36,IN,1694836339
411,fuerte olimpo,-21.0415,-57.8738,21.4,56,0,2.36,PY,1694836474
412,song cau,13.45,109.2167,32.12,58,99,1.54,VN,1694836474
413,kiama,-34.6833,150.8667,32.43,26,0,2.66,AU,1694836475
414,torghay,49.6339,63.4981,17.89,49,95,1.78,KZ,1694836475
415,salym,60.0625,71.4789,15.86,66,39,0.74,RU,1694836475
416,cockburn town,21.4612,-71.1419,28.88,70,85,2.76,TC,1694836311
417,sig,35.5283,-0.1937,23.89,64,33,1.33,DZ,1694836475
418,chornomors'k,46.305,30.6548,17.56,82,2,7.22,UA,1694836476
419,cannonvale,-20.2833,148.7,22.66,60,73,7.77,AU,1694836476
420,sao felix do xingu,-6.6447,-51.995,26.14,43,80,0.88,BR,1694836476
421,colonia,50.9333,6.95,16.64,82,0,1.03,DE,1694835896
422,altinopolis,-21.0256,-47.3739,16.64,40,0,1.37,BR,1694836477
423,mount gambier,-37.8333,140.7667,18.95,59,0,6.96,AU,1694836477
424,nelson bay,-32.7167,152.15,32.03,63,0,4.02,AU,1694836477
425,chincha alta,-13.4099,-76.1323,16.33,83,68,0.39,PE,1694836477
426,crane,31.3974,-102.3501,22.86,57,83,5.37,US,1694836478
427,porto novo,6.4965,2.6036,25.9,93,100,2.52,BJ,1694835927
428,hirakud,21.5167,83.8667,27.75,82,60,1.91,IN,1694836478
429,peace river,56.2501,-117.286,20.17,34,75,5.66,CA,1694836478
430,bougouni,11.417,-7.479,22.11,98,100,1.62,ML,1694836479
431,rawson,-43.3002,-65.1023,10.31,40,0,11.25,AR,1694836479
432,brokopondo,4.75,-55.1667,26.8,75,73,4.1,SR,1694836479
433,kupang,-10.1667,123.5833,34.32,33,20,7.72,ID,1694836479
434,san antonio oeste,-40.7319,-64.9477,13.2,37,100,5.84,AR,1694836227
435,beyneu,45.3167,55.2,19.12,44,58,5.73,KZ,1694835919
436,howrah,22.5892,88.3103,31.0,84,75,3.09,IN,1694835940
437,yeed,4.55,43.0333,23.01,72,75,7.14,SO,1694835929
438,derzhavinsk,51.1,66.3167,15.64,61,97,2.29,KZ,1694835926
439,basavana bagevadi,16.5833,75.9667,26.13,62,99,8.97,IN,1694836481
440,campos novos,-27.4017,-51.225,6.99,86,3,1.77,BR,1694836481
441,bol'sherech'ye,56.0925,74.6272,14.97,76,82,0.81,RU,1694836481
442,murghob,38.1702,73.9667,10.8,20,0,1.5,TJ,1694836481
443,huarmey,-10.0681,-78.1522,19.22,85,88,2.93,PE,1694836482
444,rongelap,11.1635,166.8941,28.86,76,41,7.11,MH,1694835901
445,isna,25.2934,32.554,25.01,27,0,4.26,EG,1694836482
446,guerrero negro,27.9769,-114.0611,20.45,79,0,7.48,MX,1694836482
447,gonaives,19.45,-72.6833,26.62,82,100,2.21,HT,1694836483
448,tarakan,3.3,117.6333,28.72,84,20,2.57,ID,1694836483
449,sao jose da coroa grande,-8.8978,-35.1478,24.29,79,83,2.7,BR,1694835902
450,san luis,-33.295,-66.3356,21.04,22,0,7.15,AR,1694836483
451,mana,5.6592,-53.7767,25.91,89,16,3.41,GF,1694836484
452,dunedin,-45.8742,170.5036,19.48,68,100,0.45,NZ,1694836484
453,tottenham,-32.2333,147.35,30.69,15,0,6.07,AU,1694836484
454,puerto san jose,13.9256,-90.8244,26.86,82,97,1.9,GT,1694836484
455,constitucion,-35.3333,-72.4167,12.72,96,16,1.43,CL,1694836485
456,port saint john's,-31.6229,29.5448,15.97,76,99,7.54,ZA,1694836485
457,yonggwang-up,40.0183,127.4547,24.83,73,98,1.93,KP,1694836485
458,onguday,50.75,86.15,11.67,68,96,1.0,RU,1694836486
459,almodovar del campo,38.7094,-4.1791,17.46,92,75,1.73,ES,1694836271
460,ak'ordat,15.5486,37.8867,27.42,59,66,1.41,ER,1694836486
461,lodja,-3.4833,23.4333,21.37,83,82,0.47,CD,1694836486
462,ad dabbah,18.05,30.95,28.27,21,26,4.2,SD,1694836487
463,santyoku,37.4406,129.1708,23.89,92,96,2.24,KR,1694836487
464,naze,28.3667,129.4833,29.51,76,92,4.81,JP,1694835907
465,yasnyy,51.0333,59.8742,14.92,69,22,2.56,RU,1694836487
466,sao gabriel da cachoeira,-0.1303,-67.0892,23.82,72,50,0.47,BR,1694836488
467,kindu,-2.95,25.95,21.22,93,76,1.02,CD,1694836488
468,el granada,37.5027,-122.4694,19.13,87,100,6.17,US,1694836488
469,kota kinabalu,5.9749,116.0724,30.99,70,20,2.24,MY,1694836488
470,shirbin,31.1954,31.5213,20.64,82,0,1.4,EG,1694836489
471,la libertad,-2.2333,-80.9,22.45,81,98,4.09,EC,1694836489
472,ardakan,32.31,54.0175,24.89,31,0,6.73,IR,1694836489
473,taro,-8.3862,115.28,24.0,51,98,2.03,ID,1694836489
474,pierre,44.3683,-100.351,15.71,53,0,3.6,US,1694836490
475,sretensk,52.2453,117.7093,15.81,34,100,1.48,RU,1694836490
476,vernon,50.2581,-119.2691,20.97,43,2,1.03,CA,1694835908
477,monteagudo,-19.8167,-63.9833,13.74,71,0,1.54,BO,1694836490
478,gebeit,21.0667,36.3167,27.97,36,19,1.31,SD,1694836491
479,manta,-0.95,-80.7333,24.88,78,40,2.57,EC,1694836491
480,bandarbeyla,9.4942,50.8122,27.41,64,62,12.0,SO,1694836491
481,puerto baquerizo moreno,-0.9,-89.6,22.99,75,87,3.75,EC,1694835905
482,kencong,-8.2833,113.3667,29.36,61,66,5.19,ID,1694836491
483,filadelfia,39.9523,-75.1638,18.14,74,20,3.6,US,1694836409
484,sao joao da barra,-21.6403,-41.0511,19.68,81,100,2.29,BR,1694836492
485,pointe aux piments,-20.0628,57.5131,24.73,67,49,8.55,MU,1694836492
486,nguigmi,14.2495,13.1092,29.13,56,94,1.95,NE,1694836493
487,traiguen,-38.25,-72.6833,10.07,96,100,5.03,CL,1694836493
488,kovalam,8.3667,76.9967,26.05,83,100,1.54,IN,1694836493
489,asamankese,5.8601,-0.6635,23.01,97,100,1.77,GH,1694836493
490,gaiman,-43.2897,-65.4929,10.06,38,1,9.98,AR,1694835915
491,kristiansund,63.1115,7.732,11.36,87,75,4.63,NO,1694836494
492,basse-terre,16.1667,-61.6667,24.77,88,60,0.51,GP,1694836494
493,undurkhaan,47.3194,110.6556,14.88,48,100,4.39,MN,1694835912
494,nishinoomote,30.7333,131.0,29.31,83,40,4.12,JP,1694836494
495,ishigaki,24.3448,124.1572,31.07,74,20,3.09,JP,1694836495
496,ritchie,-29.038,24.6028,9.56,90,80,4.49,ZA,1694836495
497,tsimasham,27.0989,89.536,21.85,62,0,2.49,BT,1694836495
498,pekin,39.9075,116.3972,26.94,53,69,2.28,CN,1694836200
499,malango,-2.9627,119.9001,27.77,54,70,2.71,ID,1694835950
500,hobyo,5.3505,48.5268,25.97,73,85,8.55,SO,1694836496
501,kayes,14.0,-11.0,21.85,93,100,1.23,ML,1694836496
502,changyon,38.2508,125.0961,25.77,75,100,1.67,KP,1694836496
503,nyaunglebin,17.95,96.7333,26.74,89,100,0.94,MM,1694836496
504,nianzishan,47.5167,122.8833,11.16,74,100,3.88,CN,1694836497
505,sebdou,34.637,-1.3314,16.61,63,49,2.0,DZ,1694836497
506,kouvola,60.8667,26.7,12.55,99,100,3.6,FI,1694836497
507,tongchuanshi,35.0806,109.0897,25.35,58,26,3.32,CN,1694836497
508,ambagarh chauki,20.7833,80.7167,26.16,82,95,5.08,IN,1694836498
509,pailon,-17.65,-62.75,22.5,59,0,3.04,BO,1694836498
510,horta,38.5333,-28.6333,20.01,64,0,5.81,PT,1694836498
511,berdigestyakh,62.0989,126.6992,4.66,65,98,6.79,RU,1694836498
512,santa ines,-3.6667,-45.38,24.77,87,15,3.1,BR,1694835906
513,nuuk,64.1835,-51.7216,2.34,87,100,5.14,GL,1694836499
514,nampula,-15.1165,39.2666,19.97,94,75,3.6,MZ,1694836499
515,haiku-pauwela,20.9219,-156.3051,27.01,73,40,8.75,US,1694836499
516,bereket,39.2446,55.5154,22.54,27,0,4.81,TM,1694836499
517,la sarre,48.8002,-79.1996,9.49,92,47,3.11,CA,1694836244
518,celestun,20.8667,-90.4,27.41,83,0,5.42,MX,1694836500
519,carutapera,-1.195,-46.02,25.99,80,21,3.81,BR,1694836500
520,leava,-14.3,-178.1667,27.7,80,58,5.24,WF,1694835937
521,tarija,-21.5355,-64.7296,15.39,31,0,0.59,BO,1694836501
522,mokhsogollokh,61.4681,128.9203,6.01,62,86,7.49,RU,1694836501
523,vorkuta,67.5,64.0,6.38,76,100,4.88,RU,1694836501
524,tarhuna,32.435,13.6332,21.66,44,79,4.15,LY,1694836502
525,magway,20.15,94.9167,31.12,63,16,1.96,MM,1694836502
526,vadso,70.0744,29.7487,7.09,87,100,3.6,NO,1694836502
527,vieux-habitants,16.0589,-61.7659,25.95,75,52,3.16,GP,1694836502
528,mazamari,-11.3258,-74.5308,21.91,86,91,0.83,PE,1694836503
529,leh,34.1667,77.5833,16.18,51,7,2.67,IN,1694836503
530,rabaul,-4.1967,152.1721,27.69,67,83,8.2,PG,1694836503
531,pasuquin,18.3328,120.6177,29.97,74,75,2.57,PH,1694835932
532,saynshand,44.8824,110.1163,16.96,44,100,3.08,MN,1694836504
533,pacasmayo,-7.4006,-79.5714,18.87,85,35,3.05,PE,1694836504
534,tromso,69.6496,18.957,1.01,93,75,1.03,NO,1694836261
535,shorkot,31.9099,70.8774,35.23,36,3,3.04,PK,1694836504
536,aykhal,66.0,111.5,2.35,61,88,8.12,RU,1694835931
537,tafuna,-14.3358,-170.72,26.97,89,75,7.72,AS,1694836505
538,mandalgovi,45.7625,106.2708,12.11,49,80,0.65,MN,1694836505
539,aliveri,38.4167,24.0333,25.23,51,38,3.06,GR,1694836505
540,torredembarra,41.1451,1.3986,23.3,70,40,2.06,ES,1694836506
541,pyapon,16.2833,95.6833,29.01,79,93,5.02,MM,1694836506
542,altona,53.55,9.9333,13.81,91,20,2.57,DE,1694836506
543,alexandria,31.2156,29.9553,22.3,68,0,2.4,EG,1694836322
544,yuci,37.6803,112.7319,24.86,53,0,3.0,CN,1694836507
545,arno,60.1167,18.6333,15.44,81,98,5.34,SE,1694836507
546,linqiong,30.4159,103.4609,25.9,82,100,0.41,CN,1694836507
547,nemuro,43.3236,145.575,19.23,87,100,5.44,JP,1694836507
548,kurchatov,51.6601,35.6521,15.23,64,68,1.79,RU,1694836508
549,medina,24.4686,39.6142,32.24,15,0,2.57,SA,1694836508
550,paracuru,-3.41,-39.0306,26.73,85,39,6.39,BR,1694836508
551,gusinoozyorsk,51.2833,106.5,16.25,44,87,3.94,RU,1694836508
552,antalaha,-14.9003,50.2788,21.93,75,75,2.51,MG,1694835918
553,waterford,42.7023,-83.4027,15.02,87,20,0.0,US,1694836408
554,thief river falls,48.1191,-96.1812,13.96,88,100,3.6,US,1694836509
555,turpan,42.9333,89.1667,26.06,27,50,0.48,CN,1694836509
556,taroa,8.7058,171.2275,28.57,78,97,5.71,MH,1694836510
557,mrakovo,52.7161,56.6244,13.4,81,89,1.04,RU,1694836510
558,alencon,48.4333,0.0833,15.97,74,100,2.27,FR,1694836412
559,okhotsk,59.3833,143.3,11.58,55,62,2.27,RU,1694836510
560,atherton,53.5237,-2.4935,15.16,95,78,2.65,GB,1694836511
561,linhares,-19.3911,-40.0722,20.85,87,100,4.36,BR,1694836511
562,luau,-10.7073,22.2247,19.55,38,5,1.46,AO,1694836511
563,howard springs,-12.497,131.047,32.15,22,93,4.08,AU,1694836511
564,richards bay,-28.783,32.0377,19.54,73,47,6.78,ZA,1694836318
565,sona,45.4388,10.8255,17.75,88,0,1.03,IT,1694836512
566,uyskoye,54.3775,60.0047,13.68,74,69,0.18,RU,1694836512
567,robertsport,6.7533,-11.3686,24.97,88,100,3.58,LR,1694836512
568,ascension,30.2169,-90.9001,27.27,87,92,0.0,US,1694836512
